{"type":"FeatureCollection", "features":[
{"type":"Feature","id":"node/204537445","geometry":{"type":"Point","coordinates":[106.8217093,-6.3911151]},"properties":{"alt_name":"Stasiun Depok Baru","light_rail":null,"name":"Depok Baru","operator":"PT Kereta Api Indonesia","station":"KRL","subway":null,"train":"yes","lat":-6.39112,"lon":106.82171}},
{"type":"Feature","id":"node/316739014","geometry":{"type":"Point","coordinates":[106.665001,-6.1722998]},"properties":{"alt_name":"Stasiun Batu Ceper","light_rail":null,"name":"Batu Ceper","operator":"PT Kereta Api Indonesia","station":"KRL","subway":null,"train":"yes","lat":-6.1723,"lon":106.665}},
{"type":"Feature","id":"node/316739060","geometry":{"type":"Point","coordinates":[106.646307,-6.1752865]},"properties":{"alt_name":"Stasiun Tanah Tinggi","light_rail":null,"name":"Tanah Tinggi","operator":"PT Kereta Api Indonesia","station":"KRL","subway":null,"train":"yes","lat":-6.17529,"lon":106.64631}},
{"type":"Feature","id":"node/316739175","geometry":{"type":"Point","coordinates":[106.6318353,-6.1769829]},"properties":{"alt_name":"Stasiun Tangerang","light_rail":null,"name":"Tangerang","operator":"PT Kereta Api Indonesia","station":"KRL","subway":null,"train":"yes","lat":-6.17698,"lon":106.63184}},
{"type":"Feature","id":"node/316743611","geometry":{"type":"Point","coordinates":[106.9798096,-6.2245619]},"properties":{"alt_name":"Stasiun Kranji","light_rail":null,"name":"Kranji","operator":"PT Kereta Api Indonesia","station":"KRL","subway":null,"train":"yes","lat":-6.22456,"lon":106.97981}},
{"type":"Feature","id":"node/316744644","geometry":{"type":"Point","coordinates":[107.0558176,-6.25861]},"properties":{"alt_name":"Stasiun Tambun","light_rail":null,"name":"Tambun","operator":"PT Kereta Api Indonesia","station":"KRL","subway":null,"train":"yes","lat":-6.25861,"lon":107.05582}},
{"type":"Feature","id":"node/316744738","geometry":{"type":"Point","coordinates":[107.0836549,-6.2618811]},"properties":{"alt_name":"Stasiun Cibitung","light_rail":null,"name":"Cibitung","operator":"PT Kereta Api Indonesia","station":"KRL","subway":null,"train":"yes","lat":-6.26188,"lon":107.08365}},
{"type":"Feature","id":"node/316848964","geometry":{"type":"Point","coordinates":[106.7126471,-6.2968441]},"properties":{"alt_name":"Stasiun Sudimara","light_rail":null,"name":"Sudimara","operator":"PT Kereta Api Indonesia","station":"KRL","subway":null,"train":"yes","lat":-6.29684,"lon":106.71265}},
{"type":"Feature","id":"node/318718577","geometry":{"type":"Point","coordinates":[106.7446926,-6.2766831]},"properties":{"alt_name":"Stasiun Pondok Ranji","light_rail":null,"name":"Pondok Ranji","operator":"PT Kereta Api Indonesia","station":"KRL","subway":null,"train":"yes","lat":-6.27668,"lon":106.74469}},
{"type":"Feature","id":"node/318720710","geometry":{"type":"Point","coordinates":[106.7291545,-6.2886017]},"properties":{"alt_name":"Stasiun Jurangmangu","light_rail":null,"name":"Jurangmangu","operator":"PT Kereta Api Indonesia","station":"KRL","subway":null,"train":"yes","lat":-6.2886,"lon":106.72915}},
{"type":"Feature","id":"node/318840303","geometry":{"type":"Point","coordinates":[106.8550913,-6.2553463]},"properties":{"alt_name":"Stasiun Duren Kalibata","light_rail":null,"name":"Duren Kalibata","operator":"PT Kereta Api Indonesia","station":"KRL","subway":null,"train":"yes","lat":-6.25535,"lon":106.85509}},
{"type":"Feature","id":"node/318841469","geometry":{"type":"Point","coordinates":[106.8023351,-6.4489809]},"properties":{"alt_name":"Stasiun Citayam","light_rail":null,"name":"Citayam","operator":"PT Kereta Api Indonesia","station":"KRL","subway":null,"train":"yes","lat":-6.44898,"lon":106.80234}},
{"type":"Feature","id":"node/1191729437","geometry":{"type":"Point","coordinates":[106.4346476,-6.3285909]},"properties":{"alt_name":"Stasiun Tigaraksa","light_rail":null,"name":"Tigaraksa","operator":"PT Kereta Api Indonesia","station":"KRL","subway":null,"train":"yes","lat":-6.32859,"lon":106.43465}},
{"type":"Feature","id":"node/1191930466","geometry":{"type":"Point","coordinates":[106.4617065,-6.3273371]},"properties":{"alt_name":"Stasiun Tenjo","light_rail":null,"name":"Tenjo","operator":"PT Kereta Api Indonesia","station":"KRL","subway":null,"train":"yes","lat":-6.32734,"lon":106.46171}},
{"type":"Feature","id":"node/1191930561","geometry":{"type":"Point","coordinates":[106.5693576,-6.3443326]},"properties":{"alt_name":"Stasiun Parungpanjang","light_rail":null,"name":"Parungpanjang","operator":"PT Kereta Api Indonesia","station":"KRL","subway":null,"train":"yes","lat":-6.34433,"lon":106.56936}},
{"type":"Feature","id":"node/1191930671","geometry":{"type":"Point","coordinates":[106.4925311,-6.3379483]},"properties":{"alt_name":"Stasiun Daru","light_rail":null,"name":"Daru","operator":"PT Kereta Api Indonesia","station":"KRL","subway":null,"train":"yes","lat":-6.33795,"lon":106.49253}},
{"type":"Feature","id":"node/1191930747","geometry":{"type":"Point","coordinates":[106.6189894,-6.3296959]},"properties":{"alt_name":"Stasiun Cicayur","light_rail":null,"name":"Cicayur","operator":"PT Kereta Api Indonesia","station":"KRL","subway":null,"train":"yes","lat":-6.3297,"lon":106.61899}},
{"type":"Feature","id":"node/1191930798","geometry":{"type":"Point","coordinates":[106.5096724,-6.3543272]},"properties":{"alt_name":"Stasiun Cilejit","light_rail":null,"name":"Cilejit","operator":"PT Kereta Api Indonesia","station":"KRL","subway":null,"train":"yes","lat":-6.35433,"lon":106.50967}},
{"type":"Feature","id":"node/1228345071","geometry":{"type":"Point","coordinates":[106.9063938,-6.4664068]},"properties":{"alt_name":"Stasiun Nambo","light_rail":null,"name":"Nambo","operator":"PT Kereta Api Indonesia","station":"KRL","subway":null,"train":"yes","lat":-6.46641,"lon":106.90639}},
{"type":"Feature","id":"node/1228345121","geometry":{"type":"Point","coordinates":[106.8246073,-6.4606782]},"properties":{"alt_name":"Stasiun Pondok Rajeg","light_rail":null,"name":"Pondok Rajeg","operator":"PT Kereta Api Indonesia","station":"KRL","subway":null,"train":"yes","lat":-6.46068,"lon":106.82461}},
{"type":"Feature","id":"node/1228345128","geometry":{"type":"Point","coordinates":[106.8524655,-6.4641408]},"properties":{"alt_name":"Stasiun Cibinong","light_rail":null,"name":"Cibinong","operator":"PT Kereta Api Indonesia","station":"KRL","subway":null,"train":"yes","lat":-6.46414,"lon":106.85247}},
{"type":"Feature","id":null,"geometry":{"type":"Point","coordinates":[106.39602613558185,-6.332326588259879]},"properties":{"alt_name":"Stasiun Maja","light_rail":null,"name":"Maja","operator":"PT Kereta Api Indonesia","station":"KRL","subway":null,"train":"yes","lat":-6.33233,"lon":106.39603}},
{"type":"Feature","id":"node/1235347475","geometry":{"type":"Point","coordinates":[106.8006425,-6.5307338]},"properties":{"alt_name":"Stasiun Cilebut","light_rail":null,"name":"Cilebut","operator":"PT Kereta Api Indonesia","station":"KRL","subway":null,"train":"yes","lat":-6.53073,"lon":106.80064}},
{"type":"Feature","id":"node/1642327224","geometry":{"type":"Point","coordinates":[106.8171099,-6.4048834]},"properties":{"alt_name":"Stasiun Depok","light_rail":null,"name":"Depok","operator":"PT Kereta Api Indonesia","station":"KRL","subway":null,"train":"yes","lat":-6.40488,"lon":106.81711}},
{"type":"Feature","id":"node/1989244032","geometry":{"type":"Point","coordinates":[106.8098548,-6.6262328]},"properties":{"alt_name":"Stasiun Batutulis","light_rail":null,"name":"Batutulis","operator":"PT Kereta Api Indonesia","station":"KRL","subway":null,"train":"yes","lat":-6.62623,"lon":106.80985}},
{"type":"Feature","id":"node/2334098791","geometry":{"type":"Point","coordinates":[106.8586843,-6.2424394]},"properties":{"alt_name":"Stasiun Cawang","light_rail":null,"name":"Cawang","operator":"PT Kereta Api Indonesia","station":"KRL","subway":null,"train":"yes","lat":-6.24244,"lon":106.85868}},
{"type":"Feature","id":"node/2372928209","geometry":{"type":"Point","coordinates":[106.8318795,-6.3608586]},"properties":{"alt_name":"Stasiun Universitas Indonesia","light_rail":null,"name":"Universitas Indonesia","operator":"PT Kereta Api Indonesia","station":"KRL","subway":null,"train":"yes","lat":-6.36086,"lon":106.83188}},
{"type":"Feature","id":"node/2781389009","geometry":{"type":"Point","coordinates":[106.8170161,-6.663597]},"properties":{"alt_name":"Stasiun Ciomas","light_rail":null,"name":"Ciomas","operator":"PT Kereta Api Indonesia","station":"KRL","subway":null,"train":"yes","lat":-6.6636,"lon":106.81702}},
{"type":"Feature","id":"node/3056674105","geometry":{"type":"Point","coordinates":[106.858396,-6.2260164]},"properties":{"alt_name":"Stasiun Tebet","light_rail":null,"name":"Tebet","operator":"PT Kereta Api Indonesia","station":"KRL","subway":null,"train":"yes","lat":-6.22602,"lon":106.8584}},
{"type":"Feature","id":"node/3469731328","geometry":{"type":"Point","coordinates":[106.9992869,-6.2363849]},"properties":{"alt_name":"Stasiun Bekasi","light_rail":null,"name":"Bekasi","operator":"PT Kereta Api Indonesia","station":"KRL","subway":null,"train":"yes","lat":-6.23638,"lon":106.99929}},
{"type":"Feature","id":"node/3865048155","geometry":{"type":"Point","coordinates":[106.9227868,-6.2155219]},"properties":{"alt_name":"Stasiun Buaran","light_rail":null,"name":"Buaran","operator":"PT Kereta Api Indonesia","station":"KRL","subway":null,"train":"yes","lat":-6.21552,"lon":106.92279}},
{"type":"Feature","id":"node/3865048788","geometry":{"type":"Point","coordinates":[106.9522215,-6.2190962]},"properties":{"alt_name":"Stasiun Cakung","light_rail":null,"name":"Cakung","operator":"PT Kereta Api Indonesia","station":"KRL","subway":null,"train":"yes","lat":-6.2191,"lon":106.95222}},
{"type":"Feature","id":"node/4149249345","geometry":{"type":"Point","coordinates":[106.8565925,-6.1937143]},"properties":{"alt_name":"Stasiun Kramat","light_rail":null,"name":"Kramat","operator":"PT Kereta Api Indonesia","station":"KRL","subway":null,"train":"yes","lat":-6.19371,"lon":106.85659}},
{"type":"Feature","id":"node/4149368915","geometry":{"type":"Point","coordinates":[106.7723932,-6.161306]},"properties":{"alt_name":"Stasiun Pesing","light_rail":null,"name":"Pesing","operator":"PT Kereta Api Indonesia","station":"KRL","subway":null,"train":"yes","lat":-6.16131,"lon":106.77239}},
{"type":"Feature","id":"node/4149398980","geometry":{"type":"Point","coordinates":[106.8320844,-6.3690593]},"properties":{"alt_name":"Stasiun Pondok Cina","light_rail":null,"name":"Pondok Cina","operator":"PT Kereta Api Indonesia","station":"KRL","subway":null,"train":"yes","lat":-6.36906,"lon":106.83208}},
{"type":"Feature","id":"node/4149415299","geometry":{"type":"Point","coordinates":[106.6803214,-6.1698991]},"properties":{"alt_name":"Stasiun Poris","light_rail":null,"name":"Poris","operator":"PT Kereta Api Indonesia","station":"KRL","subway":null,"train":"yes","lat":-6.1699,"lon":106.68032}},
{"type":"Feature","id":"node/4152468605","geometry":{"type":"Point","coordinates":[106.665516,-6.3201864]},"properties":{"alt_name":"Stasiun Serpong","light_rail":null,"name":"Serpong","operator":"PT Kereta Api Indonesia","station":"KRL","subway":null,"train":"yes","lat":-6.32019,"lon":106.66552}},
{"type":"Feature","id":"node/4695686975","geometry":{"type":"Point","coordinates":[106.7984104,-6.2387665]},"properties":{"alt_name":"Stasiun ASEAN","light_rail":null,"name":"ASEAN","operator":"MRT Jakarta","station":"subway","subway":"yes","train":null,"lat":-6.23877,"lon":106.79841}},
{"type":"Feature","id":"node/4797813240","geometry":{"type":"Point","coordinates":[106.8703394,-6.2149252]},"properties":{"alt_name":"Stasiun Jatinegara","light_rail":null,"name":"Jatinegara","operator":"PT Kereta Api Indonesia","station":"KRL","subway":null,"train":"yes","lat":-6.21493,"lon":106.87034}},
{"type":"Feature","id":"node/4798377262","geometry":{"type":"Point","coordinates":[106.8326229,-6.1858204]},"properties":{"alt_name":"Stasiun Gondangdia","light_rail":null,"name":"Gondangdia","operator":"PT Kereta Api Indonesia","station":"KRL","subway":null,"train":"yes","lat":-6.18582,"lon":106.83262}},
{"type":"Feature","id":"node/4800675082","geometry":{"type":"Point","coordinates":[106.8623592,-6.2091282]},"properties":{"alt_name":"Stasiun Pondok Jati","light_rail":null,"name":"Pondok Jati","operator":"PT Kereta Api Indonesia","station":"KRL","subway":null,"train":"yes","lat":-6.20913,"lon":106.86236}},
{"type":"Feature","id":"node/4815286700","geometry":{"type":"Point","coordinates":[106.8500581,-6.2101342]},"properties":{"alt_name":"Stasiun Manggarai","light_rail":null,"name":"Manggarai","operator":"PT Kereta Api Indonesia","station":"KRL","subway":null,"train":"yes","lat":-6.21013,"lon":106.85006}},
{"type":"Feature","id":"node/4817686767","geometry":{"type":"Point","coordinates":[106.8410674,-6.1982336]},"properties":{"alt_name":"Stasiun Cikini","light_rail":null,"name":"Cikini","operator":"PT Kereta Api Indonesia","station":"KRL","subway":null,"train":"yes","lat":-6.19823,"lon":106.84107}},
{"type":"Feature","id":"node/4836555990","geometry":{"type":"Point","coordinates":[106.8108938,-6.1857127]},"properties":{"alt_name":"Stasiun Tanah Abang","light_rail":null,"name":"Tanah Abang","operator":"PT Kereta Api Indonesia","station":"KRL","subway":null,"train":"yes","lat":-6.18571,"lon":106.81089}},
{"type":"Feature","id":"node/4849162195","geometry":{"type":"Point","coordinates":[106.8444789,-6.1744969]},"properties":{"alt_name":"Stasiun Pasar Senen","light_rail":null,"name":"Pasar Senen","operator":"PT Kereta Api Indonesia","station":"KRL","subway":null,"train":"yes","lat":-6.1745,"lon":106.84448}},
{"type":"Feature","id":"node/4849205568","geometry":{"type":"Point","coordinates":[106.8158855,-6.2007468]},"properties":{"alt_name":"Stasiun Karet","light_rail":null,"name":"Karet","operator":"PT Kereta Api Indonesia","station":"KRL","subway":null,"train":"yes","lat":-6.20075,"lon":106.81589}},
{"type":"Feature","id":"node/4877432803","geometry":{"type":"Point","coordinates":[106.7975828,-6.2072135]},"properties":{"alt_name":"Stasiun Palmerah","light_rail":null,"name":"Palmerah","operator":"PT Kereta Api Indonesia","station":"KRL","subway":null,"train":"yes","lat":-6.20721,"lon":106.79758}},
{"type":"Feature","id":"node/4881688223","geometry":{"type":"Point","coordinates":[106.8518071,-6.2627967]},"properties":{"alt_name":"Stasiun Pasar Minggu Baru","light_rail":null,"name":"Pasar Minggu Baru","operator":"PT Kereta Api Indonesia","station":"KRL","subway":null,"train":"yes","lat":-6.2628,"lon":106.85181}},
{"type":"Feature","id":"node/4883105492","geometry":{"type":"Point","coordinates":[106.8304609,-6.1666746]},"properties":{"alt_name":"Stasiun Juanda","light_rail":null,"name":"Juanda","operator":"PT Kereta Api Indonesia","station":"KRL","subway":null,"train":"yes","lat":-6.16667,"lon":106.83046}},
{"type":"Feature","id":"node/4891132084","geometry":{"type":"Point","coordinates":[106.8306534,-6.1766841]},"properties":{"alt_name":"Stasiun Gambir","light_rail":null,"name":"Gambir","operator":"PT Kereta Api Indonesia","station":"KRL","subway":null,"train":"yes","lat":-6.17668,"lon":106.83065}},
{"type":"Feature","id":"node/4899822033","geometry":{"type":"Point","coordinates":[106.8415304,-6.161683]},"properties":{"alt_name":"Stasiun Kemayoran","light_rail":null,"name":"Kemayoran","operator":"PT Kereta Api Indonesia","station":"KRL","subway":null,"train":"yes","lat":-6.16168,"lon":106.84153}},
{"type":"Feature","id":"node/4900932061","geometry":{"type":"Point","coordinates":[106.8993934,-6.2132687]},"properties":{"alt_name":"Stasiun Klender","light_rail":null,"name":"Klender","operator":"PT Kereta Api Indonesia","station":"KRL","subway":null,"train":"yes","lat":-6.21327,"lon":106.89939}},
{"type":"Feature","id":"node/4901690569","geometry":{"type":"Point","coordinates":[106.9399504,-6.2175818]},"properties":{"alt_name":"Stasiun Klender Baru","light_rail":null,"name":"Klender Baru","operator":"PT Kereta Api Indonesia","station":"KRL","subway":null,"train":"yes","lat":-6.21758,"lon":106.93995}},
{"type":"Feature","id":"node/4905517383","geometry":{"type":"Point","coordinates":[106.7045611,-6.1658289]},"properties":{"alt_name":"Stasiun Kalideres","light_rail":null,"name":"Kalideres","operator":"PT Kereta Api Indonesia","station":"KRL","subway":null,"train":"yes","lat":-6.16583,"lon":106.70456}},
{"type":"Feature","id":"node/4907843137","geometry":{"type":"Point","coordinates":[106.8806097,-6.2927768]},"properties":{"alt_name":"Stasiun Taman Mini","light_rail":"yes","name":"Taman Mini","operator":"PT Kereta Api Indonesia (Persero), Divisi LRT Jabodebek","station":"light_rail","subway":null,"train":null,"lat":-6.29278,"lon":106.88061}},
{"type":"Feature","id":"node/4908440160","geometry":{"type":"Point","coordinates":[106.8200664,-6.2016694]},"properties":{"alt_name":"Stasiun BNI City; Stasiun Sudirman Baru","light_rail":null,"name":"BNI City","operator":"PT Kereta Api Indonesia","station":"KRL","subway":null,"train":"yes","lat":-6.20167,"lon":106.82007}},
{"type":"Feature","id":"node/4910182667","geometry":{"type":"Point","coordinates":[106.8343494,-6.3389709]},"properties":{"alt_name":"Stasiun Universitas Pancasila","light_rail":null,"name":"Universitas Pancasila","operator":"PT Kereta Api Indonesia","station":"KRL","subway":null,"train":"yes","lat":-6.33897,"lon":106.83435}},
{"type":"Feature","id":"node/4921653106","geometry":{"type":"Point","coordinates":[106.8508907,-6.1861427]},"properties":{"alt_name":"Stasiun Gang Sentiong","light_rail":null,"name":"Gang Sentiong","operator":"PT Kereta Api Indonesia","station":"KRL","subway":null,"train":"yes","lat":-6.18614,"lon":106.85089}},
{"type":"Feature","id":"node/4923408354","geometry":{"type":"Point","coordinates":[106.8277717,-6.1609716]},"properties":{"alt_name":"Stasiun Sawah Besar","light_rail":null,"name":"Sawah Besar","operator":"PT Kereta Api Indonesia","station":"KRL","subway":null,"train":"yes","lat":-6.16097,"lon":106.82777}},
{"type":"Feature","id":"node/4925555833","geometry":{"type":"Point","coordinates":[106.8237266,-6.2024678]},"properties":{"alt_name":"Stasiun Sudirman","light_rail":null,"name":"Sudirman","operator":"PT Kereta Api Indonesia","station":"KRL","subway":null,"train":"yes","lat":-6.20247,"lon":106.82373}},
{"type":"Feature","id":"node/4928014343","geometry":{"type":"Point","coordinates":[106.838831,-6.3084835]},"properties":{"alt_name":"Stasiun Tanjung Barat","light_rail":null,"name":"Tanjung Barat","operator":"PT Kereta Api Indonesia","station":"KRL","subway":null,"train":"yes","lat":-6.30848,"lon":106.83883}},
{"type":"Feature","id":"node/4961436159","geometry":{"type":"Point","coordinates":[106.8007617,-6.1443972]},"properties":{"alt_name":"Stasiun Angke","light_rail":null,"name":"Angke","operator":"PT Kereta Api Indonesia","station":"KRL","subway":null,"train":"yes","lat":-6.1444,"lon":106.80076}},
{"type":"Feature","id":"node/4963127710","geometry":{"type":"Point","coordinates":[106.836791,-6.1451326]},"properties":{"alt_name":"Stasiun Rajawali","light_rail":null,"name":"Rajawali","operator":"PT Kereta Api Indonesia","station":"KRL","subway":null,"train":"yes","lat":-6.14513,"lon":106.83679}},
{"type":"Feature","id":"node/4963295116","geometry":{"type":"Point","coordinates":[106.8013272,-6.155848]},"properties":{"alt_name":"Stasiun Duri","light_rail":null,"name":"Duri","operator":"PT Kereta Api Indonesia","station":"KRL","subway":null,"train":"yes","lat":-6.15585,"lon":106.80133}},
{"type":"Feature","id":"node/4976561246","geometry":{"type":"Point","coordinates":[106.8271025,-6.1501432]},"properties":{"alt_name":"Stasiun Mangga Besar","light_rail":null,"name":"Mangga Besar","operator":"PT Kereta Api Indonesia","station":"KRL","subway":null,"train":"yes","lat":-6.15014,"lon":106.8271}},
{"type":"Feature","id":"node/4976676188","geometry":{"type":"Point","coordinates":[106.8449405,-6.2826745]},"properties":{"alt_name":"Stasiun Pasar Minggu","light_rail":null,"name":"Pasar Minggu","operator":"PT Kereta Api Indonesia","station":"KRL","subway":null,"train":"yes","lat":-6.28267,"lon":106.84494}},
{"type":"Feature","id":"node/4981870932","geometry":{"type":"Point","coordinates":[106.8230295,-6.1411095]},"properties":{"alt_name":"Stasiun Jayakarta","light_rail":null,"name":"Jayakarta","operator":"PT Kereta Api Indonesia","station":"KRL","subway":null,"train":"yes","lat":-6.14111,"lon":106.82303}},
{"type":"Feature","id":"node/5019465652","geometry":{"type":"Point","coordinates":[106.8345262,-6.3299493]},"properties":{"alt_name":"Stasiun Lenteng Agung","light_rail":null,"name":"Lenteng Agung","operator":"PT Kereta Api Indonesia","station":"KRL","subway":null,"train":"yes","lat":-6.32995,"lon":106.83453}},
{"type":"Feature","id":"node/5023480157","geometry":{"type":"Point","coordinates":[106.8816237,-6.1105923]},"properties":{"alt_name":"Stasiun Tanjung Priuk","light_rail":null,"name":"Tanjung Priuk","operator":"PT Kereta Api Indonesia","station":"KRL","subway":null,"train":"yes","lat":-6.11059,"lon":106.88162}},
{"type":"Feature","id":"node/5033751697","geometry":{"type":"Point","coordinates":[106.7233854,-6.1626116]},"properties":{"alt_name":"Stasiun Rawa Buaya","light_rail":null,"name":"Rawa Buaya","operator":"PT Kereta Api Indonesia","station":"KRL","subway":null,"train":"yes","lat":-6.16261,"lon":106.72339}},
{"type":"Feature","id":"node/5036305391","geometry":{"type":"Point","coordinates":[106.8146203,-6.1375828]},"properties":{"alt_name":"Stasiun Jakarta Kota","light_rail":null,"name":"Jakarta Kota","operator":"PT Kereta Api Indonesia","station":"KRL","subway":null,"train":"yes","lat":-6.13758,"lon":106.81462}},
{"type":"Feature","id":"node/5038266056","geometry":{"type":"Point","coordinates":[106.8848966,-6.214232]},"properties":{"alt_name":"Stasiun Cipinang","light_rail":null,"name":"Cipinang","operator":"PT Kereta Api Indonesia","station":"KRL","subway":null,"train":"yes","lat":-6.21423,"lon":106.8849}},
{"type":"Feature","id":"node/5047494890","geometry":{"type":"Point","coordinates":[106.7887323,-6.1620074]},"properties":{"alt_name":"Stasiun Grogol","light_rail":null,"name":"Grogol","operator":"PT Kereta Api Indonesia","station":"KRL","subway":null,"train":"yes","lat":-6.16201,"lon":106.78873}},
{"type":"Feature","id":"node/5070781613","geometry":{"type":"Point","coordinates":[106.7825345,-6.23723]},"properties":{"alt_name":"Stasiun Kebayoran","light_rail":null,"name":"Kebayoran","operator":"PT Kereta Api Indonesia","station":"KRL","subway":null,"train":"yes","lat":-6.23723,"lon":106.78253}},
{"type":"Feature","id":"node/5070875099","geometry":{"type":"Point","coordinates":[106.7564642,-6.1586641]},"properties":{"alt_name":"Stasiun Taman Kota","light_rail":null,"name":"Taman Kota","operator":"PT Kereta Api Indonesia","station":"KRL","subway":null,"train":"yes","lat":-6.15866,"lon":106.75646}},
{"type":"Feature","id":"node/5124126895","geometry":{"type":"Point","coordinates":[106.8448651,-6.1280857]},"properties":{"alt_name":"Stasiun Ancol","light_rail":null,"name":"Ancol","operator":"PT Kereta Api Indonesia","station":"KRL","subway":null,"train":"yes","lat":-6.12809,"lon":106.84487}},
{"type":"Feature","id":"node/5136968956","geometry":{"type":"Point","coordinates":[106.8193388,-6.133309]},"properties":{"alt_name":"Stasiun Jakarta Gudang","light_rail":null,"name":"Jakarta Gudang","operator":"PT Kereta Api Indonesia","station":"KRL","subway":null,"train":"yes","lat":-6.13331,"lon":106.81934}},
{"type":"Feature","id":"node/5155429394","geometry":{"type":"Point","coordinates":[107.0181684,-6.2468788]},"properties":{"alt_name":"Stasiun Bekasi Timur","light_rail":null,"name":"Bekasi Timur","operator":"PT Kereta Api Indonesia","station":"KRL","subway":null,"train":"yes","lat":-6.24688,"lon":107.01817}},
{"type":"Feature","id":"node/5303455029","geometry":{"type":"Point","coordinates":[107.1446736,-6.2547831]},"properties":{"alt_name":"Stasiun Cikarang","light_rail":null,"name":"Cikarang","operator":"PT Kereta Api Indonesia","station":"KRL","subway":null,"train":"yes","lat":-6.25478,"lon":107.14467}},
{"type":"Feature","id":"node/5310716224","geometry":{"type":"Point","coordinates":[106.4114012,-6.3357705]},"properties":{"alt_name":"Stasiun Cikoya","light_rail":null,"name":"Cikoya","operator":"PT Kereta Api Indonesia","station":"KRL","subway":null,"train":"yes","lat":-6.33577,"lon":106.4114}},
{"type":"Feature","id":"node/5312478122","geometry":{"type":"Point","coordinates":[107.1112287,-6.2574471]},"properties":{"alt_name":"Stasiun Metland Telagamurni","light_rail":null,"name":"Metland Telagamurni","operator":"PT Kereta Api Indonesia","station":"KRL","subway":null,"train":"yes","lat":-6.25745,"lon":107.11123}},
{"type":"Feature","id":"node/5459945761","geometry":{"type":"Point","coordinates":[106.6761518,-6.314884]},"properties":{"alt_name":"Stasiun Rawa Buntu","light_rail":null,"name":"Rawa Buntu","operator":"PT Kereta Api Indonesia","station":"KRL","subway":null,"train":"yes","lat":-6.31488,"lon":106.67615}},
{"type":"Feature","id":"node/5541079384","geometry":{"type":"Point","coordinates":[106.7950092,-6.4932293]},"properties":{"alt_name":"Stasiun Bojonggede","light_rail":null,"name":"Bojonggede","operator":"PT Kereta Api Indonesia","station":"KRL","subway":null,"train":"yes","lat":-6.49323,"lon":106.79501}},
{"type":"Feature","id":"node/5579655834","geometry":{"type":"Point","coordinates":[106.8283542,-6.1323904]},"properties":{"alt_name":"Stasiun Kampung Bandan","light_rail":null,"name":"Kampung Bandan","operator":"PT Kereta Api Indonesia","station":"KRL","subway":null,"train":"yes","lat":-6.13239,"lon":106.82835}},
{"type":"Feature","id":"node/5984702926","geometry":{"type":"Point","coordinates":[106.9058367,-6.1596366]},"properties":{"alt_name":"Stasiun Boulevard Utara","light_rail":"yes","name":"Boulevard Utara","operator":"PT LRT Jakarta","station":"light_rail","subway":null,"train":null,"lat":-6.15964,"lon":106.90584}},
{"type":"Feature","id":"node/5984702927","geometry":{"type":"Point","coordinates":[106.900025,-6.1690106]},"properties":{"alt_name":"Stasiun Boulevard Selatan","light_rail":"yes","name":"Boulevard Selatan","operator":"PT LRT Jakarta","station":"light_rail","subway":null,"train":null,"lat":-6.16901,"lon":106.90003}},
{"type":"Feature","id":"node/5984702928","geometry":{"type":"Point","coordinates":[106.8933889,-6.1773065]},"properties":{"alt_name":"Stasiun Pulomas","light_rail":"yes","name":"Pulomas","operator":"PT LRT Jakarta","station":"light_rail","subway":null,"train":null,"lat":-6.17731,"lon":106.89339}},
{"type":"Feature","id":"node/5984702929","geometry":{"type":"Point","coordinates":[106.8912748,-6.184055]},"properties":{"alt_name":"Stasiun Equestrian","light_rail":"yes","name":"Equestrian","operator":"PT LRT Jakarta","station":"light_rail","subway":null,"train":null,"lat":-6.18406,"lon":106.89127}},
{"type":"Feature","id":"node/5984702930","geometry":{"type":"Point","coordinates":[106.8912102,-6.1925845]},"properties":{"alt_name":"Stasiun Velodrome","light_rail":"yes","name":"Velodrome","operator":"PT LRT Jakarta","station":"light_rail","subway":null,"train":null,"lat":-6.19258,"lon":106.89121}},
{"type":"Feature","id":"node/5984702931","geometry":{"type":"Point","coordinates":[106.9141849,-6.1573434]},"properties":{"alt_name":"Stasiun Pegangsaan Dua","light_rail":"yes","name":"Pegangsaan Dua","operator":"PT LRT Jakarta","station":"light_rail","subway":null,"train":null,"lat":-6.15734,"lon":106.91418}},
{"type":"Feature","id":"node/6196107719","geometry":{"type":"Point","coordinates":[106.822988,-6.1918644]},"properties":{"alt_name":"Stasiun Bundaran HI","light_rail":null,"name":"Bundaran HI","operator":"MRT Jakarta","station":"subway","subway":"yes","train":null,"lat":-6.19186,"lon":106.82299}},
{"type":"Feature","id":"node/6196107720","geometry":{"type":"Point","coordinates":[106.822788,-6.2007957]},"properties":{"alt_name":"Stasiun Dukuh Atas","light_rail":null,"name":"Dukuh Atas","operator":"MRT Jakarta","station":"subway","subway":"yes","train":null,"lat":-6.2008,"lon":106.82279}},
{"type":"Feature","id":"node/6196107721","geometry":{"type":"Point","coordinates":[106.8217385,-6.2090892]},"properties":{"alt_name":"Stasiun Setiabudi","light_rail":null,"name":"Setiabudi","operator":"MRT Jakarta","station":"subway","subway":"yes","train":null,"lat":-6.20909,"lon":106.82174}},
{"type":"Feature","id":"node/6196107722","geometry":{"type":"Point","coordinates":[106.8179255,-6.2150075]},"properties":{"alt_name":"Stasiun Bendungan Hilir","light_rail":null,"name":"Bendungan Hilir","operator":"MRT Jakarta","station":"subway","subway":"yes","train":null,"lat":-6.21501,"lon":106.81793}},
{"type":"Feature","id":"node/6196107723","geometry":{"type":"Point","coordinates":[106.8085865,-6.2223578]},"properties":{"alt_name":"Stasiun Istora","light_rail":null,"name":"Istora","operator":"MRT Jakarta","station":"subway","subway":"yes","train":null,"lat":-6.22236,"lon":106.80859}},
{"type":"Feature","id":"node/6196107724","geometry":{"type":"Point","coordinates":[106.8024731,-6.2267238]},"properties":{"alt_name":"Stasiun Senayan","light_rail":null,"name":"Senayan","operator":"MRT Jakarta","station":"subway","subway":"yes","train":null,"lat":-6.22672,"lon":106.80247}},
{"type":"Feature","id":"node/6196107726","geometry":{"type":"Point","coordinates":[106.7981349,-6.2445908]},"properties":{"alt_name":"Stasiun Blok M","light_rail":null,"name":"Blok M","operator":"MRT Jakarta","station":"subway","subway":"yes","train":null,"lat":-6.24459,"lon":106.79813}},
{"type":"Feature","id":"node/6196107727","geometry":{"type":"Point","coordinates":[106.7971205,-6.2557778]},"properties":{"alt_name":"Stasiun Blok A","light_rail":null,"name":"Blok A","operator":"MRT Jakarta","station":"subway","subway":"yes","train":null,"lat":-6.25578,"lon":106.79712}},
{"type":"Feature","id":"node/6196107728","geometry":{"type":"Point","coordinates":[106.7973262,-6.2666947]},"properties":{"alt_name":"Stasiun Haji Nawi","light_rail":null,"name":"Haji Nawi","operator":"MRT Jakarta","station":"subway","subway":"yes","train":null,"lat":-6.26669,"lon":106.79733}},
{"type":"Feature","id":"node/6196107729","geometry":{"type":"Point","coordinates":[106.7973089,-6.2783654]},"properties":{"alt_name":"Stasiun Cipete Raya","light_rail":null,"name":"Cipete Raya","operator":"MRT Jakarta","station":"subway","subway":"yes","train":null,"lat":-6.27837,"lon":106.79731}},
{"type":"Feature","id":"node/6577753462","geometry":{"type":"Point","coordinates":[106.7924644,-6.2924511]},"properties":{"alt_name":"Stasiun Fatmawati","light_rail":null,"name":"Fatmawati","operator":"MRT Jakarta","station":"subway","subway":"yes","train":null,"lat":-6.29245,"lon":106.79246}},
{"type":"Feature","id":"node/6577753463","geometry":{"type":"Point","coordinates":[106.7749355,-6.2892744]},"properties":{"alt_name":"Stasiun Lebak Bulus","light_rail":null,"name":"Lebak Bulus","operator":"MRT Jakarta","station":"subway","subway":"yes","train":null,"lat":-6.28927,"lon":106.77494}},
{"type":"Feature","id":"node/6720467131","geometry":{"type":"Point","coordinates":[106.8570764,-6.2434813]},"properties":{"alt_name":"Stasiun Cikoko","light_rail":"yes","name":"Cikoko","operator":"PT Kereta Api Indonesia (Persero), Divisi LRT Jabodebek","station":"light_rail","subway":null,"train":null,"lat":-6.24348,"lon":106.85708}},
{"type":"Feature","id":"node/6720467132","geometry":{"type":"Point","coordinates":[106.8385798,-6.2421426]},"properties":{"alt_name":"Stasiun Pancoran","light_rail":"yes","name":"Pancoran","operator":"PT Kereta Api Indonesia (Persero), Divisi LRT Jabodebek","station":"light_rail","subway":null,"train":null,"lat":-6.24214,"lon":106.83858}},
{"type":"Feature","id":"node/6720467133","geometry":{"type":"Point","coordinates":[106.8715048,-6.2459823]},"properties":{"alt_name":"Stasiun Cawang","light_rail":"yes","name":"Cawang","operator":"PT Kereta Api Indonesia (Persero), Divisi LRT Jabodebek","station":"light_rail","subway":null,"train":null,"lat":-6.24598,"lon":106.8715}},
{"type":"Feature","id":"node/6720467135","geometry":{"type":"Point","coordinates":[106.8296446,-6.2074748]},"properties":{"alt_name":"Stasiun Setiabudi","light_rail":"yes","name":"Setiabudi","operator":"PT Kereta Api Indonesia (Persero), Divisi LRT Jabodebek","station":"light_rail","subway":null,"train":null,"lat":-6.20747,"lon":106.82964}},
{"type":"Feature","id":"node/6720467136","geometry":{"type":"Point","coordinates":[106.8322456,-6.2215652]},"properties":{"alt_name":"Stasiun Rasuna Said","light_rail":"yes","name":"Rasuna Said","operator":"PT Kereta Api Indonesia (Persero), Divisi LRT Jabodebek","station":"light_rail","subway":null,"train":null,"lat":-6.22157,"lon":106.83225}},
{"type":"Feature","id":"node/6720467137","geometry":{"type":"Point","coordinates":[106.8845026,-6.3097055]},"properties":{"alt_name":"Stasiun Kampung Rambutan","light_rail":"yes","name":"Kampung Rambutan","operator":"PT Kereta Api Indonesia (Persero), Divisi LRT Jabodebek","station":"light_rail","subway":null,"train":null,"lat":-6.30971,"lon":106.8845}},
{"type":"Feature","id":"node/6720467138","geometry":{"type":"Point","coordinates":[106.8956973,-6.3740442]},"properties":{"alt_name":"Stasiun Harjamukti","light_rail":"yes","name":"Harjamukti","operator":"PT Kereta Api Indonesia (Persero), Divisi LRT Jabodebek","station":"light_rail","subway":null,"train":null,"lat":-6.37404,"lon":106.8957}},
{"type":"Feature","id":"node/7249140957","geometry":{"type":"Point","coordinates":[106.6416465,-6.3244506]},"properties":{"alt_name":"Stasiun Cisauk","light_rail":null,"name":"Cisauk","operator":"PT Kereta Api Indonesia","station":"KRL","subway":null,"train":"yes","lat":-6.32445,"lon":106.64165}},
{"type":"Feature","id":"node/7616402144","geometry":{"type":"Point","coordinates":[107.0216877,-6.2640436]},"properties":{"alt_name":"Stasiun Jati Mulya","light_rail":"yes","name":"Jati Mulya","operator":"PT LRT Jakarta","station":"light_rail","subway":null,"train":null,"lat":-6.26404,"lon":107.02169}},
{"type":"Feature","id":"node/7764926504","geometry":{"type":"Point","coordinates":[106.8598883,-6.2124979]},"properties":{"alt_name":"Stasiun Matraman","light_rail":null,"name":"Matraman","operator":"PT Kereta Api Indonesia","station":"KRL","subway":null,"train":"yes","lat":-6.2125,"lon":106.85989}},
{"type":"Feature","id":"node/7764939389","geometry":{"type":"Point","coordinates":[106.736771,-6.159932]},"properties":{"alt_name":"Stasiun Bojong Indah","light_rail":null,"name":"Bojong Indah","operator":"PT Kereta Api Indonesia","station":"KRL","subway":null,"train":"yes","lat":-6.15993,"lon":106.73677}},
{"type":"Feature","id":"node/7880147174","geometry":{"type":"Point","coordinates":[106.7906173,-6.5942714]},"properties":{"alt_name":"Stasiun Bogor","light_rail":null,"name":"Bogor","operator":"PT Kereta Api Indonesia","station":"KRL","subway":null,"train":"yes","lat":-6.59427,"lon":106.79062}},
{"type":"Feature","id":"node/8174072563","geometry":{"type":"Point","coordinates":[106.9901338,-6.252856]},"properties":{"alt_name":"Stasiun Bekasi Barat","light_rail":"yes","name":"Bekasi Barat","operator":"PT Kereta Api Indonesia (Persero), Divisi LRT Jabodebek","station":"light_rail","subway":null,"train":null,"lat":-6.25286,"lon":106.99013}},
{"type":"Feature","id":"node/8174072564","geometry":{"type":"Point","coordinates":[106.9630811,-6.2546984]},"properties":{"alt_name":"Stasiun Cikunir 2","light_rail":"yes","name":"Cikunir 2","operator":"PT Kereta Api Indonesia (Persero), Divisi LRT Jabodebek","station":"light_rail","subway":null,"train":null,"lat":-6.2547,"lon":106.96308}},
{"type":"Feature","id":"node/8174072565","geometry":{"type":"Point","coordinates":[106.9518667,-6.2565914]},"properties":{"alt_name":"Stasiun Cikunir 1","light_rail":"yes","name":"Cikunir 1","operator":"PT Kereta Api Indonesia (Persero), Divisi LRT Jabodebek","station":"light_rail","subway":null,"train":null,"lat":-6.25659,"lon":106.95187}},
{"type":"Feature","id":"node/8174072566","geometry":{"type":"Point","coordinates":[106.9280206,-6.2577072]},"properties":{"alt_name":"Stasiun Jatibening Baru","light_rail":"yes","name":"Jatibening Baru","operator":"PT Kereta Api Indonesia (Persero), Divisi LRT Jabodebek","station":"light_rail","subway":null,"train":null,"lat":-6.25771,"lon":106.92802}},
{"type":"Feature","id":"node/8174072567","geometry":{"type":"Point","coordinates":[106.8332004,-6.2287658]},"properties":{"alt_name":"Stasiun Kuningan","light_rail":"yes","name":"Kuningan","operator":"PT Kereta Api Indonesia (Persero), Divisi LRT Jabodebek","station":"light_rail","subway":null,"train":null,"lat":-6.22877,"lon":106.8332}},
{"type":"Feature","id":"node/8174072568","geometry":{"type":"Point","coordinates":[106.8867829,-6.3236828]},"properties":{"alt_name":"Stasiun Ciracas","light_rail":"yes","name":"Ciracas","operator":"PT Kereta Api Indonesia (Persero), Divisi LRT Jabodebek","station":"light_rail","subway":null,"train":null,"lat":-6.32368,"lon":106.88678}},
{"type":"Feature","id":"node/8174072570","geometry":{"type":"Point","coordinates":[106.8257305,-6.2048706]},"properties":{"alt_name":"Stasiun Dukuh Atas","light_rail":"yes","name":"Dukuh Atas","operator":"PT Kereta Api Indonesia (Persero), Divisi LRT Jabodebek","station":"light_rail","subway":null,"train":null,"lat":-6.20487,"lon":106.82573}},
{"type":"Feature","id":"node/8487603262","geometry":{"type":"Point","coordinates":[106.864014,-6.2434402]},"properties":{"alt_name":"Stasiun Ciliwung","light_rail":"yes","name":"Ciliwung","operator":"PT Kereta Api Indonesia (Persero), Divisi LRT Jabodebek","station":"light_rail","subway":null,"train":null,"lat":-6.24344,"lon":106.86401}},
{"type":"Feature","id":"node/8487603263","geometry":{"type":"Point","coordinates":[106.8640328,-6.2434661]},"properties":{"alt_name":"Stasiun Ciliwung","light_rail":"yes","name":"Ciliwung","operator":"PT Kereta Api Indonesia (Persero), Divisi LRT Jabodebek","station":"light_rail","subway":null,"train":null,"lat":-6.24347,"lon":106.86403}},
{"type":"Feature","id":"node/9655006135","geometry":{"type":"Point","coordinates":[106.6523109,-6.1273939]},"properties":{"alt_name":"Stasiun Bandara Soekarno-Hatta","light_rail":null,"name":"Bandara Soekarno-Hatta","operator":"PT Kereta Api Indonesia","station":"KRL","subway":null,"train":"yes","lat":-6.12739,"lon":106.65231}},
{"type":"Feature","id":"node/9761865798","geometry":{"type":"Point","coordinates":[106.8874277,-6.2457903]},"properties":{"alt_name":"Stasiun Halim","light_rail":"yes","name":"Halim","operator":"PT Kereta Api Indonesia (Persero), Divisi LRT Jabodebek","station":"light_rail","subway":null,"train":null,"lat":-6.24579,"lon":106.88743}},
{"type":"Feature","id":null,"geometry":{"type":"Point","coordinates":[106.33261341798432,-6.335013774218752]},"properties":{"alt_name":"Stasiun Citeras","light_rail":null,"name":"Stasiun Citeras","operator":"PT Kereta Api Indonesia","station":"KRL","subway":null,"train":"yes","lat":-6.33501,"lon":106.33261}},
{"type":"Feature","id":null,"geometry":{"type":"Point","coordinates":[106.2514782624768,-6.352809277608043]},"properties":{"alt_name":"Stasiun Rangkasbitung","light_rail":null,"name":"Stasiun Rangkasbitung","operator":"PT Kereta Api Indonesia","station":"KRL","subway":null,"train":"yes","lat":-6.35281,"lon":106.25148}}
]}
